[{"id":1,"company_name":"Homenick, Olson and Swaniawski","title":"A conversation about Homenick, Olson and Swaniawski","date":"2021-10-18T20:37:53Z","location":{"address":"9282 Mariners Cove Center","city":"Sophia Antipolis","state":"Provence-Alpes-Côte d'Azur","country":"France","zipcode":"06928 CEDEX","phone":"890-621-0297"},"type":"event","content_1":"Join us for an in depth discussion about Homenick, Olson and Swaniawski at 9282 Mariners Cove Center!","content_2":"Lorem ipsum dolor sit amet, consectetuer adipiscing elit. Proin risus. Praesent lectus."},
{"id":2,"company_name":"Ziemann, Batz and Feeney","title":"A conversation about Ziemann, Batz and Feeney","date":"2020-12-11T03:07:49Z","location":{"address":"76103 Leroy Circle","city":"Compiègne","state":"Picardie","country":"France","zipcode":"60204 CEDEX","phone":"198-328-9334"},"type":"event","content_1":"Join us for an in depth discussion about Ziemann, Batz and Feeney at 76103 Leroy Circle!","content_2":"Duis aliquam convallis nunc. Proin at turpis a pede posuere nonummy. Integer non velit."},
{"id":3,"company_name":"Schimmel-Little","title":"A conversation about Schimmel-Little","date":"2021-12-10T07:50:37Z","location":{"address":"4578 3rd Trail","city":"Watrous","state":"Saskatchewan","country":"Canada","zipcode":"L9T","phone":"822-280-4404"},"type":"event","content_1":"Join us for an in depth discussion about Schimmel-Little at 4578 3rd Trail!","content_2":"Pellentesque at nulla. Suspendisse potenti. Cras in purus eu magna vulputate luctus."},
{"id":4,"company_name":"Morar-Grady","title":"A conversation about Morar-Grady","date":"2020-10-02T08:38:05Z","location":{"address":"3 Dovetail Circle","city":"Cleveland","state":"Ohio","country":"United States","zipcode":"44185","phone":"216-263-3601"},"type":"event","content_1":"Join us for an in depth discussion about Morar-Grady at 3 Dovetail Circle!","content_2":"Nullam porttitor lacus at turpis. Donec posuere metus vitae ipsum. Aliquam non mauris."},
{"id":5,"company_name":"Boehm, Abshire and Hoppe","title":"A conversation about Boehm, Abshire and Hoppe","date":"2021-02-16T15:20:38Z","location":{"address":"718 Menomonie Junction","city":"Normandin","state":"Québec","country":"Canada","zipcode":"G0H","phone":"386-863-2767"},"type":"event","content_1":"Join us for an in depth discussion about Boehm, Abshire and Hoppe at 718 Menomonie Junction!","content_2":"In hac habitasse platea dictumst. Morbi vestibulum, velit id pretium iaculis, diam erat fermentum justo, nec condimentum neque sapien placerat ante. Nulla justo."},
{"id":6,"company_name":"Stroman, Johnson and Cormier","title":"A conversation about Stroman, Johnson and Cormier","date":"2020-09-27T00:06:18Z","location":{"address":"5124 Northport Parkway","city":"Cumming","state":"Georgia","country":"United States","zipcode":"30130","phone":"404-293-4672"},"type":"event","content_1":"Join us for an in depth discussion about Stroman, Johnson and Cormier at 5124 Northport Parkway!","content_2":"Nam ultrices, libero non mattis pulvinar, nulla pede ullamcorper augue, a suscipit nulla elit ac nulla. Sed vel enim sit amet nunc viverra dapibus. Nulla suscipit ligula in lacus.\n\nCurabitur at ipsum ac tellus semper interdum. Mauris ullamcorper purus sit amet nulla. Quisque arcu libero, rutrum ac, lobortis vel, dapibus at, diam."},
{"id":7,"company_name":"Padberg-McLaughlin","title":"A conversation about Padberg-McLaughlin","date":"2021-11-19T13:17:19Z","location":{"address":"27751 Kensington Avenue","city":"Cagnes-sur-Mer","state":"Provence-Alpes-Côte d'Azur","country":"France","zipcode":"06804 CEDEX","phone":"607-115-0906"},"type":"event","content_1":"Join us for an in depth discussion about Padberg-McLaughlin at 27751 Kensington Avenue!","content_2":"Proin eu mi. Nulla ac enim. In tempor, turpis nec euismod scelerisque, quam turpis adipiscing lorem, vitae mattis nibh ligula nec sem.\n\nDuis aliquam convallis nunc. Proin at turpis a pede posuere nonummy. Integer non velit."},
{"id":8,"company_name":"Stoltenberg Inc","title":"A conversation about Stoltenberg Inc","date":"2021-04-17T21:51:43Z","location":{"address":"4 Hooker Court","city":"Cumming","state":"Georgia","country":"United States","zipcode":"30130","phone":"404-613-9230"},"type":"event","content_1":"Join us for an in depth discussion about Stoltenberg Inc at 4 Hooker Court!","content_2":"Nullam porttitor lacus at turpis. Donec posuere metus vitae ipsum. Aliquam non mauris."},
{"id":9,"company_name":"Borer-Stamm","title":"A conversation about Borer-Stamm","date":"2021-02-03T22:03:11Z","location":{"address":"70270 Sommers Park","city":"Charlemagne","state":"Québec","country":"Canada","zipcode":"J6V","phone":"200-726-4397"},"type":"event","content_1":"Join us for an in depth discussion about Borer-Stamm at 70270 Sommers Park!","content_2":"Aliquam quis turpis eget elit sodales scelerisque. Mauris sit amet eros. Suspendisse accumsan tortor quis turpis.\n\nSed ante. Vivamus tortor. Duis mattis egestas metus."},
{"id":10,"company_name":"Roberts-Pollich","title":"A conversation about Roberts-Pollich","date":"2020-09-29T07:41:01Z","location":{"address":"87 Vera Court","city":"Cincinnati","state":"Ohio","country":"United States","zipcode":"45218","phone":"513-139-4189"},"type":"event","content_1":"Join us for an in depth discussion about Roberts-Pollich at 87 Vera Court!","content_2":"Quisque id justo sit amet sapien dignissim vestibulum. Vestibulum ante ipsum primis in faucibus orci luctus et ultrices posuere cubilia Curae; Nulla dapibus dolor vel est. Donec odio justo, sollicitudin ut, suscipit a, feugiat et, eros."},
{"id":11,"company_name":"Treutel-Keeling","title":"A conversation about Treutel-Keeling","date":"2020-12-31T12:21:10Z","location":{"address":"80 Iowa Street","city":"Baltimore","state":"Maryland","country":"United States","zipcode":"21216","phone":"410-400-5749"},"type":"event","content_1":"Join us for an in depth discussion about Treutel-Keeling at 80 Iowa Street!","content_2":"Nullam sit amet turpis elementum ligula vehicula consequat. Morbi a ipsum. Integer a nibh."},
{"id":12,"company_name":"Sauer and Sons","title":"A conversation about Sauer and Sons","date":"2021-12-23T16:38:33Z","location":{"address":"004 Gateway Way","city":"Colorado Springs","state":"Colorado","country":"United States","zipcode":"80930","phone":"719-336-6486"},"type":"event","content_1":"Join us for an in depth discussion about Sauer and Sons at 004 Gateway Way!","content_2":"Morbi porttitor lorem id ligula. Suspendisse ornare consequat lectus. In est risus, auctor sed, tristique in, tempus sit amet, sem.\n\nFusce consequat. Nulla nisl. Nunc nisl."},
{"id":13,"company_name":"Dooley, Block and Kub","title":"A conversation about Dooley, Block and Kub","date":"2021-11-22T18:41:07Z","location":{"address":"7 Fordem Crossing","city":"Wilmington","state":"Delaware","country":"United States","zipcode":"19892","phone":"302-707-1936"},"type":"event","content_1":"Join us for an in depth discussion about Dooley, Block and Kub at 7 Fordem Crossing!","content_2":"Integer ac leo. Pellentesque ultrices mattis odio. Donec vitae nisi."},
{"id":14,"company_name":"Schiller Inc","title":"A conversation about Schiller Inc","date":"2021-07-02T10:00:05Z","location":{"address":"27 Ridge Oak Terrace","city":"Richmond","state":"Québec","country":"Canada","zipcode":"V6Z","phone":"584-133-4886"},"type":"event","content_1":"Join us for an in depth discussion about Schiller Inc at 27 Ridge Oak Terrace!","content_2":"Nullam sit amet turpis elementum ligula vehicula consequat. Morbi a ipsum. Integer a nibh."},
{"id":15,"company_name":"Yost-Hackett","title":"A conversation about Yost-Hackett","date":"2022-01-19T19:12:06Z","location":{"address":"3964 Clove Terrace","city":"Gibbons","state":"Alberta","country":"Canada","zipcode":"M1E","phone":"332-144-9403"},"type":"event","content_1":"Join us for an in depth discussion about Yost-Hackett at 3964 Clove Terrace!","content_2":"Integer ac leo. Pellentesque ultrices mattis odio. Donec vitae nisi.\n\nNam ultrices, libero non mattis pulvinar, nulla pede ullamcorper augue, a suscipit nulla elit ac nulla. Sed vel enim sit amet nunc viverra dapibus. Nulla suscipit ligula in lacus."},
{"id":16,"company_name":"Herzog Inc","title":"A conversation about Herzog Inc","date":"2021-06-09T17:10:09Z","location":{"address":"50 Independence Alley","city":"Houston","state":"Texas","country":"United States","zipcode":"77035","phone":"713-963-0167"},"type":"event","content_1":"Join us for an in depth discussion about Herzog Inc at 50 Independence Alley!","content_2":"Integer ac leo. Pellentesque ultrices mattis odio. Donec vitae nisi."},
{"id":17,"company_name":"Stehr, Rolfson and Rippin","title":"A conversation about Stehr, Rolfson and Rippin","date":"2020-10-26T01:04:04Z","location":{"address":"4627 Cottonwood Point","city":"Mississauga","state":"Ontario","country":"Canada","zipcode":"L5W","phone":"877-875-4236"},"type":"event","content_1":"Join us for an in depth discussion about Stehr, Rolfson and Rippin at 4627 Cottonwood Point!","content_2":"Duis bibendum, felis sed interdum venenatis, turpis enim blandit mi, in porttitor pede justo eu massa. Donec dapibus. Duis at velit eu est congue elementum.\n\nIn hac habitasse platea dictumst. Morbi vestibulum, velit id pretium iaculis, diam erat fermentum justo, nec condimentum neque sapien placerat ante. Nulla justo."},
{"id":18,"company_name":"Marks, Koepp and Ledner","title":"A conversation about Marks, Koepp and Ledner","date":"2021-05-24T10:24:49Z","location":{"address":"8611 Eastlawn Way","city":"Asnières-sur-Seine","state":"Île-de-France","country":"France","zipcode":"92665 CEDEX","phone":"240-915-4749"},"type":"event","content_1":"Join us for an in depth discussion about Marks, Koepp and Ledner at 8611 Eastlawn Way!","content_2":"In quis justo. Maecenas rhoncus aliquam lacus. Morbi quis tortor id nulla ultrices aliquet."},
{"id":19,"company_name":"Pfannerstill-Marquardt","title":"A conversation about Pfannerstill-Marquardt","date":"2021-03-17T10:46:10Z","location":{"address":"156 Westridge Parkway","city":"Tucson","state":"Arizona","country":"United States","zipcode":"85715","phone":"520-954-9141"},"type":"event","content_1":"Join us for an in depth discussion about Pfannerstill-Marquardt at 156 Westridge Parkway!","content_2":"Donec diam neque, vestibulum eget, vulputate ut, ultrices vel, augue. Vestibulum ante ipsum primis in faucibus orci luctus et ultrices posuere cubilia Curae; Donec pharetra, magna vestibulum aliquet ultrices, erat tortor sollicitudin mi, sit amet lobortis sapien sapien non mi. Integer ac neque."},
{"id":20,"company_name":"Olson-Wehner","title":"A conversation about Olson-Wehner","date":"2021-02-26T00:10:59Z","location":{"address":"836 Troy Avenue","city":"Strasbourg","state":"Alsace","country":"France","zipcode":"67039 CEDEX 2","phone":"773-764-4461"},"type":"event","content_1":"Join us for an in depth discussion about Olson-Wehner at 836 Troy Avenue!","content_2":"Integer ac leo. Pellentesque ultrices mattis odio. Donec vitae nisi.\n\nNam ultrices, libero non mattis pulvinar, nulla pede ullamcorper augue, a suscipit nulla elit ac nulla. Sed vel enim sit amet nunc viverra dapibus. Nulla suscipit ligula in lacus."},
{"id":21,"company_name":"Brown, Schmidt and Aufderhar","title":"A conversation about Brown, Schmidt and Aufderhar","date":"2020-12-04T08:36:02Z","location":{"address":"93337 Reinke Terrace","city":"Newark","state":"New Jersey","country":"United States","zipcode":"07195","phone":"862-360-8589"},"type":"event","content_1":"Join us for an in depth discussion about Brown, Schmidt and Aufderhar at 93337 Reinke Terrace!","content_2":"Quisque id justo sit amet sapien dignissim vestibulum. Vestibulum ante ipsum primis in faucibus orci luctus et ultrices posuere cubilia Curae; Nulla dapibus dolor vel est. Donec odio justo, sollicitudin ut, suscipit a, feugiat et, eros.\n\nVestibulum ac est lacinia nisi venenatis tristique. Fusce congue, diam id ornare imperdiet, sapien urna pretium nisl, ut volutpat sapien arcu sed augue. Aliquam erat volutpat."},
{"id":22,"company_name":"Torphy Group","title":"A conversation about Torphy Group","date":"2021-08-15T13:40:43Z","location":{"address":"88 Farragut Trail","city":"Evansville","state":"Indiana","country":"United States","zipcode":"47719","phone":"812-476-0242"},"type":"event","content_1":"Join us for an in depth discussion about Torphy Group at 88 Farragut Trail!","content_2":"Maecenas leo odio, condimentum id, luctus nec, molestie sed, justo. Pellentesque viverra pede ac diam. Cras pellentesque volutpat dui.\n\nMaecenas tristique, est et tempus semper, est quam pharetra magna, ac consequat metus sapien ut nunc. Vestibulum ante ipsum primis in faucibus orci luctus et ultrices posuere cubilia Curae; Mauris viverra diam vitae quam. Suspendisse potenti."},
{"id":23,"company_name":"Senger-Smitham","title":"A conversation about Senger-Smitham","date":"2021-05-17T22:49:34Z","location":{"address":"66661 Pankratz Place","city":"Washington","state":"District of Columbia","country":"United States","zipcode":"20022","phone":"202-751-2708"},"type":"event","content_1":"Join us for an in depth discussion about Senger-Smitham at 66661 Pankratz Place!","content_2":"Proin interdum mauris non ligula pellentesque ultrices. Phasellus id sapien in sapien iaculis congue. Vivamus metus arcu, adipiscing molestie, hendrerit at, vulputate vitae, nisl."},
{"id":24,"company_name":"Graham and Sons","title":"A conversation about Graham and Sons","date":"2021-04-01T00:56:23Z","location":{"address":"8772 Loeprich Park","city":"Paris 03","state":"Île-de-France","country":"France","zipcode":"75151 CEDEX 03","phone":"291-526-6256"},"type":"event","content_1":"Join us for an in depth discussion about Graham and Sons at 8772 Loeprich Park!","content_2":"Nullam porttitor lacus at turpis. Donec posuere metus vitae ipsum. Aliquam non mauris."},
{"id":25,"company_name":"Schmeler LLC","title":"A conversation about Schmeler LLC","date":"2021-04-20T17:58:10Z","location":{"address":"7 Jenifer Avenue","city":"Cache Creek","state":"British Columbia","country":"Canada","zipcode":"N1G","phone":"545-472-8782"},"type":"event","content_1":"Join us for an in depth discussion about Schmeler LLC at 7 Jenifer Avenue!","content_2":"Fusce posuere felis sed lacus. Morbi sem mauris, laoreet ut, rhoncus aliquet, pulvinar sed, nisl. Nunc rhoncus dui vel sem.\n\nSed sagittis. Nam congue, risus semper porta volutpat, quam pede lobortis ligula, sit amet eleifend pede libero quis orci. Nullam molestie nibh in lectus."},
{"id":26,"company_name":"Zboncak, Heathcote and Ziemann","title":"A conversation about Zboncak, Heathcote and Ziemann","date":"2021-07-14T14:16:35Z","location":{"address":"72 Weeping Birch Lane","city":"Albany","state":"New York","country":"United States","zipcode":"12247","phone":"518-714-8278"},"type":"event","content_1":"Join us for an in depth discussion about Zboncak, Heathcote and Ziemann at 72 Weeping Birch Lane!","content_2":"Curabitur in libero ut massa volutpat convallis. Morbi odio odio, elementum eu, interdum eu, tincidunt in, leo. Maecenas pulvinar lobortis est."},
{"id":27,"company_name":"Larson-Keebler","title":"A conversation about Larson-Keebler","date":"2021-03-07T04:28:18Z","location":{"address":"0247 Mendota Road","city":"Boynton Beach","state":"Florida","country":"United States","zipcode":"33436","phone":"561-398-1109"},"type":"event","content_1":"Join us for an in depth discussion about Larson-Keebler at 0247 Mendota Road!","content_2":"Praesent id massa id nisl venenatis lacinia. Aenean sit amet justo. Morbi ut odio."},
{"id":28,"company_name":"Ferry, Rutherford and Nicolas","title":"A conversation about Ferry, Rutherford and Nicolas","date":"2021-07-04T06:35:33Z","location":{"address":"6260 Leroy Parkway","city":"Charleville-Mézières","state":"Champagne-Ardenne","country":"France","zipcode":"08107 CEDEX","phone":"495-689-9104"},"type":"event","content_1":"Join us for an in depth discussion about Ferry, Rutherford and Nicolas at 6260 Leroy Parkway!","content_2":"Curabitur gravida nisi at nibh. In hac habitasse platea dictumst. Aliquam augue quam, sollicitudin vitae, consectetuer eget, rutrum at, lorem."},
{"id":29,"company_name":"Thiel, Kemmer and Abernathy","title":"A conversation about Thiel, Kemmer and Abernathy","date":"2021-12-20T15:51:20Z","location":{"address":"3761 Holy Cross Trail","city":"Loudun","state":"Poitou-Charentes","country":"France","zipcode":"86206 CEDEX","phone":"960-661-9344"},"type":"event","content_1":"Join us for an in depth discussion about Thiel, Kemmer and Abernathy at 3761 Holy Cross Trail!","content_2":"Sed sagittis. Nam congue, risus semper porta volutpat, quam pede lobortis ligula, sit amet eleifend pede libero quis orci. Nullam molestie nibh in lectus."},
{"id":30,"company_name":"Tromp-Hegmann","title":"A conversation about Tromp-Hegmann","date":"2022-01-12T23:30:44Z","location":{"address":"7 Linden Way","city":"Nantes","state":"Pays de la Loire","country":"France","zipcode":"44200","phone":"929-584-9200"},"type":"event","content_1":"Join us for an in depth discussion about Tromp-Hegmann at 7 Linden Way!","content_2":"Duis bibendum. Morbi non quam nec dui luctus rutrum. Nulla tellus."},
{"id":31,"company_name":"Renner and Sons","title":"A conversation about Renner and Sons","date":"2022-01-11T15:27:07Z","location":{"address":"016 Kipling Pass","city":"Rivière-du-Loup","state":"Québec","country":"Canada","zipcode":"G5R","phone":"316-988-9385"},"type":"event","content_1":"Join us for an in depth discussion about Renner and Sons at 016 Kipling Pass!","content_2":"Nam ultrices, libero non mattis pulvinar, nulla pede ullamcorper augue, a suscipit nulla elit ac nulla. Sed vel enim sit amet nunc viverra dapibus. Nulla suscipit ligula in lacus.\n\nCurabitur at ipsum ac tellus semper interdum. Mauris ullamcorper purus sit amet nulla. Quisque arcu libero, rutrum ac, lobortis vel, dapibus at, diam."},
{"id":32,"company_name":"Glover-Flatley","title":"A conversation about Glover-Flatley","date":"2021-04-07T08:36:20Z","location":{"address":"2560 Grover Center","city":"Bordeaux","state":"Aquitaine","country":"France","zipcode":"33070 CEDEX","phone":"803-931-3134"},"type":"event","content_1":"Join us for an in depth discussion about Glover-Flatley at 2560 Grover Center!","content_2":"Curabitur in libero ut massa volutpat convallis. Morbi odio odio, elementum eu, interdum eu, tincidunt in, leo. Maecenas pulvinar lobortis est.\n\nPhasellus sit amet erat. Nulla tempus. Vivamus in felis eu sapien cursus vestibulum."},
{"id":33,"company_name":"Erdman LLC","title":"A conversation about Erdman LLC","date":"2020-09-27T03:59:02Z","location":{"address":"288 Dahle Street","city":"Digne-les-Bains","state":"Provence-Alpes-Côte d'Azur","country":"France","zipcode":"04016 CEDEX","phone":"195-824-9681"},"type":"event","content_1":"Join us for an in depth discussion about Erdman LLC at 288 Dahle Street!","content_2":"Cras non velit nec nisi vulputate nonummy. Maecenas tincidunt lacus at velit. Vivamus vel nulla eget eros elementum pellentesque."},
{"id":34,"company_name":"Bosco, Volkman and Boyle","title":"A conversation about Bosco, Volkman and Boyle","date":"2021-03-08T16:54:06Z","location":{"address":"28 Roth Place","city":"Molsheim","state":"Alsace","country":"France","zipcode":"67124 CEDEX","phone":"822-172-5290"},"type":"event","content_1":"Join us for an in depth discussion about Bosco, Volkman and Boyle at 28 Roth Place!","content_2":"In hac habitasse platea dictumst. Etiam faucibus cursus urna. Ut tellus."},
{"id":35,"company_name":"Cronin-Keebler","title":"A conversation about Cronin-Keebler","date":"2021-07-18T22:54:00Z","location":{"address":"9786 Welch Lane","city":"Tarbes","state":"Midi-Pyrénées","country":"France","zipcode":"65022 CEDEX 9","phone":"879-319-7664"},"type":"event","content_1":"Join us for an in depth discussion about Cronin-Keebler at 9786 Welch Lane!","content_2":"Proin eu mi. Nulla ac enim. In tempor, turpis nec euismod scelerisque, quam turpis adipiscing lorem, vitae mattis nibh ligula nec sem."},
{"id":36,"company_name":"Predovic Group","title":"A conversation about Predovic Group","date":"2021-10-09T02:35:18Z","location":{"address":"3 Moose Court","city":"Aix-en-Provence","state":"Provence-Alpes-Côte d'Azur","country":"France","zipcode":"13792 CEDEX 3","phone":"608-491-1939"},"type":"event","content_1":"Join us for an in depth discussion about Predovic Group at 3 Moose Court!","content_2":"Duis consequat dui nec nisi volutpat eleifend. Donec ut dolor. Morbi vel lectus in quam fringilla rhoncus.\n\nMauris enim leo, rhoncus sed, vestibulum sit amet, cursus id, turpis. Integer aliquet, massa id lobortis convallis, tortor risus dapibus augue, vel accumsan tellus nisi eu orci. Mauris lacinia sapien quis libero."},
{"id":37,"company_name":"Hills LLC","title":"A conversation about Hills LLC","date":"2021-10-26T04:43:16Z","location":{"address":"96 Charing Cross Alley","city":"Middleton","state":"Nova Scotia","country":"Canada","zipcode":"K9V","phone":"313-542-8824"},"type":"event","content_1":"Join us for an in depth discussion about Hills LLC at 96 Charing Cross Alley!","content_2":"Aenean lectus. Pellentesque eget nunc. Donec quis orci eget orci vehicula condimentum.\n\nCurabitur in libero ut massa volutpat convallis. Morbi odio odio, elementum eu, interdum eu, tincidunt in, leo. Maecenas pulvinar lobortis est."},
{"id":38,"company_name":"Bahringer-Nicolas","title":"A conversation about Bahringer-Nicolas","date":"2021-06-20T05:05:08Z","location":{"address":"87373 Village Green Alley","city":"New York City","state":"New York","country":"United States","zipcode":"10105","phone":"212-252-3408"},"type":"event","content_1":"Join us for an in depth discussion about Bahringer-Nicolas at 87373 Village Green Alley!","content_2":"Lorem ipsum dolor sit amet, consectetuer adipiscing elit. Proin risus. Praesent lectus.\n\nVestibulum quam sapien, varius ut, blandit non, interdum in, ante. Vestibulum ante ipsum primis in faucibus orci luctus et ultrices posuere cubilia Curae; Duis faucibus accumsan odio. Curabitur convallis."},
{"id":39,"company_name":"Greenholt, Morar and Erdman","title":"A conversation about Greenholt, Morar and Erdman","date":"2020-10-24T18:11:33Z","location":{"address":"278 Bellgrove Drive","city":"Sioux City","state":"Iowa","country":"United States","zipcode":"51105","phone":"712-419-0955"},"type":"event","content_1":"Join us for an in depth discussion about Greenholt, Morar and Erdman at 278 Bellgrove Drive!","content_2":"In congue. Etiam justo. Etiam pretium iaculis justo.\n\nIn hac habitasse platea dictumst. Etiam faucibus cursus urna. Ut tellus."},
{"id":40,"company_name":"Orn Inc","title":"A conversation about Orn Inc","date":"2021-04-01T20:59:17Z","location":{"address":"952 Cody Parkway","city":"Arlington","state":"Virginia","country":"United States","zipcode":"22212","phone":"571-190-6826"},"type":"event","content_1":"Join us for an in depth discussion about Orn Inc at 952 Cody Parkway!","content_2":"Aenean lectus. Pellentesque eget nunc. Donec quis orci eget orci vehicula condimentum."},
{"id":41,"company_name":"Bartell-Schaefer","title":"A conversation about Bartell-Schaefer","date":"2022-01-19T23:08:07Z","location":{"address":"101 Continental Lane","city":"Valence","state":"Rhône-Alpes","country":"France","zipcode":"26953 CEDEX 9","phone":"496-582-6115"},"type":"event","content_1":"Join us for an in depth discussion about Bartell-Schaefer at 101 Continental Lane!","content_2":"Duis aliquam convallis nunc. Proin at turpis a pede posuere nonummy. Integer non velit.\n\nDonec diam neque, vestibulum eget, vulputate ut, ultrices vel, augue. Vestibulum ante ipsum primis in faucibus orci luctus et ultrices posuere cubilia Curae; Donec pharetra, magna vestibulum aliquet ultrices, erat tortor sollicitudin mi, sit amet lobortis sapien sapien non mi. Integer ac neque."},
{"id":42,"company_name":"Wilkinson and Sons","title":"A conversation about Wilkinson and Sons","date":"2021-01-06T21:42:05Z","location":{"address":"46901 Granby Crossing","city":"Bernay","state":"Haute-Normandie","country":"France","zipcode":"27309 CEDEX","phone":"555-534-4694"},"type":"event","content_1":"Join us for an in depth discussion about Wilkinson and Sons at 46901 Granby Crossing!","content_2":"Etiam vel augue. Vestibulum rutrum rutrum neque. Aenean auctor gravida sem.\n\nPraesent id massa id nisl venenatis lacinia. Aenean sit amet justo. Morbi ut odio."},
{"id":43,"company_name":"Kertzmann-Treutel","title":"A conversation about Kertzmann-Treutel","date":"2021-11-18T02:51:22Z","location":{"address":"1 Montana Court","city":"Greater Napanee","state":"Ontario","country":"Canada","zipcode":"K7R","phone":"430-348-5346"},"type":"event","content_1":"Join us for an in depth discussion about Kertzmann-Treutel at 1 Montana Court!","content_2":"Nullam sit amet turpis elementum ligula vehicula consequat. Morbi a ipsum. Integer a nibh.\n\nIn quis justo. Maecenas rhoncus aliquam lacus. Morbi quis tortor id nulla ultrices aliquet."},
{"id":44,"company_name":"Johnson-Harris","title":"A conversation about Johnson-Harris","date":"2021-12-23T04:57:23Z","location":{"address":"13262 Gateway Center","city":"Boise","state":"Idaho","country":"United States","zipcode":"83732","phone":"208-128-1742"},"type":"event","content_1":"Join us for an in depth discussion about Johnson-Harris at 13262 Gateway Center!","content_2":"Integer tincidunt ante vel ipsum. Praesent blandit lacinia erat. Vestibulum sed magna at nunc commodo placerat.\n\nPraesent blandit. Nam nulla. Integer pede justo, lacinia eget, tincidunt eget, tempus vel, pede."},
{"id":45,"company_name":"Johnson-Harber","title":"A conversation about Johnson-Harber","date":"2021-10-04T22:48:39Z","location":{"address":"8 Riverside Point","city":"Paris La Défense","state":"Île-de-France","country":"France","zipcode":"92056 CEDEX","phone":"879-818-2758"},"type":"event","content_1":"Join us for an in depth discussion about Johnson-Harber at 8 Riverside Point!","content_2":"Phasellus in felis. Donec semper sapien a libero. Nam dui.\n\nProin leo odio, porttitor id, consequat in, consequat ut, nulla. Sed accumsan felis. Ut at dolor quis odio consequat varius."},
{"id":46,"company_name":"Howe, Hintz and Block","title":"A conversation about Howe, Hintz and Block","date":"2021-11-02T04:26:28Z","location":{"address":"4 Westend Avenue","city":"Levallois-Perret","state":"Île-de-France","country":"France","zipcode":"92309 CEDEX","phone":"738-118-3281"},"type":"event","content_1":"Join us for an in depth discussion about Howe, Hintz and Block at 4 Westend Avenue!","content_2":"Cras non velit nec nisi vulputate nonummy. Maecenas tincidunt lacus at velit. Vivamus vel nulla eget eros elementum pellentesque."},
{"id":47,"company_name":"Lebsack Group","title":"A conversation about Lebsack Group","date":"2021-12-22T01:45:44Z","location":{"address":"1 Mallory Crossing","city":"Montrouge","state":"Île-de-France","country":"France","zipcode":"92545 CEDEX","phone":"374-215-7241"},"type":"event","content_1":"Join us for an in depth discussion about Lebsack Group at 1 Mallory Crossing!","content_2":"Duis consequat dui nec nisi volutpat eleifend. Donec ut dolor. Morbi vel lectus in quam fringilla rhoncus."},
{"id":48,"company_name":"O'Kon and Sons","title":"A conversation about O'Kon and Sons","date":"2021-12-01T17:15:11Z","location":{"address":"828 Crescent Oaks Plaza","city":"Vandœuvre-lès-Nancy","state":"Lorraine","country":"France","zipcode":"54516 CEDEX","phone":"807-768-0097"},"type":"event","content_1":"Join us for an in depth discussion about O'Kon and Sons at 828 Crescent Oaks Plaza!","content_2":"Fusce consequat. Nulla nisl. Nunc nisl.\n\nDuis bibendum, felis sed interdum venenatis, turpis enim blandit mi, in porttitor pede justo eu massa. Donec dapibus. Duis at velit eu est congue elementum."},
{"id":49,"company_name":"Prosacco-Stark","title":"A conversation about Prosacco-Stark","date":"2021-08-19T23:06:40Z","location":{"address":"477 Kim Park","city":"Lattes","state":"Languedoc-Roussillon","country":"France","zipcode":"34975 CEDEX","phone":"530-824-7667"},"type":"event","content_1":"Join us for an in depth discussion about Prosacco-Stark at 477 Kim Park!","content_2":"Fusce consequat. Nulla nisl. Nunc nisl."},
{"id":50,"company_name":"Quigley Group","title":"A conversation about Quigley Group","date":"2021-09-19T05:26:42Z","location":{"address":"2 Rutledge Lane","city":"Le Mans","state":"Pays de la Loire","country":"France","zipcode":"72029 CEDEX 2","phone":"326-835-6243"},"type":"event","content_1":"Join us for an in depth discussion about Quigley Group at 2 Rutledge Lane!","content_2":"Maecenas leo odio, condimentum id, luctus nec, molestie sed, justo. Pellentesque viverra pede ac diam. Cras pellentesque volutpat dui.\n\nMaecenas tristique, est et tempus semper, est quam pharetra magna, ac consequat metus sapien ut nunc. Vestibulum ante ipsum primis in faucibus orci luctus et ultrices posuere cubilia Curae; Mauris viverra diam vitae quam. Suspendisse potenti."},
{"id":51,"company_name":"Trantow-Kessler","title":"A conversation about Trantow-Kessler","date":"2021-08-16T12:26:15Z","location":{"address":"68539 Florence Drive","city":"Vénissieux","state":"Rhône-Alpes","country":"France","zipcode":"69639 CEDEX","phone":"408-951-9629"},"type":"event","content_1":"Join us for an in depth discussion about Trantow-Kessler at 68539 Florence Drive!","content_2":"Proin eu mi. Nulla ac enim. In tempor, turpis nec euismod scelerisque, quam turpis adipiscing lorem, vitae mattis nibh ligula nec sem.\n\nDuis aliquam convallis nunc. Proin at turpis a pede posuere nonummy. Integer non velit."},
{"id":52,"company_name":"Parisian-Shields","title":"A conversation about Parisian-Shields","date":"2021-07-22T09:07:11Z","location":{"address":"4864 Golf Drive","city":"Peoria","state":"Illinois","country":"United States","zipcode":"61635","phone":"309-711-7996"},"type":"event","content_1":"Join us for an in depth discussion about Parisian-Shields at 4864 Golf Drive!","content_2":"Fusce posuere felis sed lacus. Morbi sem mauris, laoreet ut, rhoncus aliquet, pulvinar sed, nisl. Nunc rhoncus dui vel sem."},
{"id":53,"company_name":"King Group","title":"A conversation about King Group","date":"2021-02-28T17:39:30Z","location":{"address":"477 Prairieview Center","city":"Spring","state":"Texas","country":"United States","zipcode":"77386","phone":"281-911-2613"},"type":"event","content_1":"Join us for an in depth discussion about King Group at 477 Prairieview Center!","content_2":"Duis bibendum. Morbi non quam nec dui luctus rutrum. Nulla tellus.\n\nIn sagittis dui vel nisl. Duis ac nibh. Fusce lacus purus, aliquet at, feugiat non, pretium quis, lectus."},
{"id":54,"company_name":"Dach, O'Connell and Nikolaus","title":"A conversation about Dach, O'Connell and Nikolaus","date":"2020-11-16T23:20:59Z","location":{"address":"908 Clarendon Drive","city":"Manosque","state":"Provence-Alpes-Côte d'Azur","country":"France","zipcode":"04104 CEDEX","phone":"841-396-3508"},"type":"event","content_1":"Join us for an in depth discussion about Dach, O'Connell and Nikolaus at 908 Clarendon Drive!","content_2":"Phasellus sit amet erat. Nulla tempus. Vivamus in felis eu sapien cursus vestibulum."},
{"id":55,"company_name":"Block-Bode","title":"A conversation about Block-Bode","date":"2021-01-06T05:50:56Z","location":{"address":"9 Garrison Crossing","city":"El Paso","state":"Texas","country":"United States","zipcode":"79999","phone":"915-561-9370"},"type":"event","content_1":"Join us for an in depth discussion about Block-Bode at 9 Garrison Crossing!","content_2":"Proin eu mi. Nulla ac enim. In tempor, turpis nec euismod scelerisque, quam turpis adipiscing lorem, vitae mattis nibh ligula nec sem."},
{"id":56,"company_name":"Klein, Gusikowski and Conn","title":"A conversation about Klein, Gusikowski and Conn","date":"2021-01-25T01:05:02Z","location":{"address":"48033 West Circle","city":"Avignon","state":"Provence-Alpes-Côte d'Azur","country":"France","zipcode":"84007 CEDEX 1","phone":"938-676-5737"},"type":"event","content_1":"Join us for an in depth discussion about Klein, Gusikowski and Conn at 48033 West Circle!","content_2":"In hac habitasse platea dictumst. Morbi vestibulum, velit id pretium iaculis, diam erat fermentum justo, nec condimentum neque sapien placerat ante. Nulla justo."},
{"id":57,"company_name":"Cassin, Graham and Hermann","title":"A conversation about Cassin, Graham and Hermann","date":"2021-12-01T23:19:39Z","location":{"address":"7 Moose Way","city":"Aurora","state":"Illinois","country":"United States","zipcode":"60505","phone":"630-646-2723"},"type":"event","content_1":"Join us for an in depth discussion about Cassin, Graham and Hermann at 7 Moose Way!","content_2":"Etiam vel augue. Vestibulum rutrum rutrum neque. Aenean auctor gravida sem."},
{"id":58,"company_name":"Senger-Boyer","title":"A conversation about Senger-Boyer","date":"2021-06-14T12:40:30Z","location":{"address":"1526 Independence Drive","city":"Montauban","state":"Midi-Pyrénées","country":"France","zipcode":"82070 CEDEX","phone":"130-713-1785"},"type":"event","content_1":"Join us for an in depth discussion about Senger-Boyer at 1526 Independence Drive!","content_2":"In hac habitasse platea dictumst. Morbi vestibulum, velit id pretium iaculis, diam erat fermentum justo, nec condimentum neque sapien placerat ante. Nulla justo."},
{"id":59,"company_name":"Schinner, Breitenberg and Mueller","title":"A conversation about Schinner, Breitenberg and Mueller","date":"2021-03-14T04:19:55Z","location":{"address":"6 Carioca Park","city":"Palmdale","state":"California","country":"United States","zipcode":"93591","phone":"661-963-6261"},"type":"event","content_1":"Join us for an in depth discussion about Schinner, Breitenberg and Mueller at 6 Carioca Park!","content_2":"In congue. Etiam justo. Etiam pretium iaculis justo.\n\nIn hac habitasse platea dictumst. Etiam faucibus cursus urna. Ut tellus."},
{"id":60,"company_name":"Lebsack, Adams and Legros","title":"A conversation about Lebsack, Adams and Legros","date":"2020-11-24T12:18:28Z","location":{"address":"01 Dunning Parkway","city":"Laurel","state":"Maryland","country":"United States","zipcode":"20709","phone":"410-211-2023"},"type":"event","content_1":"Join us for an in depth discussion about Lebsack, Adams and Legros at 01 Dunning Parkway!","content_2":"Curabitur gravida nisi at nibh. In hac habitasse platea dictumst. Aliquam augue quam, sollicitudin vitae, consectetuer eget, rutrum at, lorem."},
{"id":61,"company_name":"Gerhold, Greenfelder and Shanahan","title":"A conversation about Gerhold, Greenfelder and Shanahan","date":"2021-11-29T05:28:17Z","location":{"address":"3 Donald Plaza","city":"Tulsa","state":"Oklahoma","country":"United States","zipcode":"74184","phone":"918-557-2338"},"type":"event","content_1":"Join us for an in depth discussion about Gerhold, Greenfelder and Shanahan at 3 Donald Plaza!","content_2":"Cum sociis natoque penatibus et magnis dis parturient montes, nascetur ridiculus mus. Vivamus vestibulum sagittis sapien. Cum sociis natoque penatibus et magnis dis parturient montes, nascetur ridiculus mus."},
{"id":62,"company_name":"Borer-Legros","title":"A conversation about Borer-Legros","date":"2021-09-26T14:37:22Z","location":{"address":"4 Schiller Circle","city":"Clermont-Ferrand","state":"Auvergne","country":"France","zipcode":"63964 CEDEX 9","phone":"704-833-3408"},"type":"event","content_1":"Join us for an in depth discussion about Borer-Legros at 4 Schiller Circle!","content_2":"Suspendisse potenti. In eleifend quam a odio. In hac habitasse platea dictumst."},
{"id":63,"company_name":"Weissnat-Reynolds","title":"A conversation about Weissnat-Reynolds","date":"2021-05-21T22:53:11Z","location":{"address":"5 Troy Terrace","city":"Vienna","state":"Virginia","country":"United States","zipcode":"22184","phone":"571-692-9747"},"type":"event","content_1":"Join us for an in depth discussion about Weissnat-Reynolds at 5 Troy Terrace!","content_2":"Aliquam quis turpis eget elit sodales scelerisque. Mauris sit amet eros. Suspendisse accumsan tortor quis turpis.\n\nSed ante. Vivamus tortor. Duis mattis egestas metus."},
{"id":64,"company_name":"Jenkins, Purdy and Gaylord","title":"A conversation about Jenkins, Purdy and Gaylord","date":"2021-09-01T20:58:50Z","location":{"address":"7 Arkansas Point","city":"Naples","state":"Florida","country":"United States","zipcode":"34114","phone":"239-115-2253"},"type":"event","content_1":"Join us for an in depth discussion about Jenkins, Purdy and Gaylord at 7 Arkansas Point!","content_2":"Fusce consequat. Nulla nisl. Nunc nisl.\n\nDuis bibendum, felis sed interdum venenatis, turpis enim blandit mi, in porttitor pede justo eu massa. Donec dapibus. Duis at velit eu est congue elementum."},
{"id":65,"company_name":"Rice LLC","title":"A conversation about Rice LLC","date":"2020-11-08T11:39:00Z","location":{"address":"136 Division Court","city":"Newark","state":"New Jersey","country":"United States","zipcode":"07195","phone":"862-459-0312"},"type":"event","content_1":"Join us for an in depth discussion about Rice LLC at 136 Division Court!","content_2":"Sed sagittis. Nam congue, risus semper porta volutpat, quam pede lobortis ligula, sit amet eleifend pede libero quis orci. Nullam molestie nibh in lectus."},
{"id":66,"company_name":"Zulauf-Fadel","title":"A conversation about Zulauf-Fadel","date":"2021-04-24T19:18:34Z","location":{"address":"9 Darwin Circle","city":"West Palm Beach","state":"Florida","country":"United States","zipcode":"33405","phone":"561-888-4489"},"type":"event","content_1":"Join us for an in depth discussion about Zulauf-Fadel at 9 Darwin Circle!","content_2":"Nullam porttitor lacus at turpis. Donec posuere metus vitae ipsum. Aliquam non mauris."},
{"id":67,"company_name":"Gislason-Hansen","title":"A conversation about Gislason-Hansen","date":"2020-09-28T09:40:38Z","location":{"address":"8 Annamark Circle","city":"Toulouse","state":"Midi-Pyrénées","country":"France","zipcode":"31403 CEDEX 9","phone":"226-147-4693"},"type":"event","content_1":"Join us for an in depth discussion about Gislason-Hansen at 8 Annamark Circle!","content_2":"Curabitur gravida nisi at nibh. In hac habitasse platea dictumst. Aliquam augue quam, sollicitudin vitae, consectetuer eget, rutrum at, lorem.\n\nInteger tincidunt ante vel ipsum. Praesent blandit lacinia erat. Vestibulum sed magna at nunc commodo placerat."},
{"id":68,"company_name":"Harris-Moen","title":"A conversation about Harris-Moen","date":"2021-01-12T12:13:37Z","location":{"address":"7561 4th Drive","city":"Bordeaux","state":"Aquitaine","country":"France","zipcode":"33036 CEDEX","phone":"795-208-9302"},"type":"event","content_1":"Join us for an in depth discussion about Harris-Moen at 7561 4th Drive!","content_2":"Maecenas leo odio, condimentum id, luctus nec, molestie sed, justo. Pellentesque viverra pede ac diam. Cras pellentesque volutpat dui.\n\nMaecenas tristique, est et tempus semper, est quam pharetra magna, ac consequat metus sapien ut nunc. Vestibulum ante ipsum primis in faucibus orci luctus et ultrices posuere cubilia Curae; Mauris viverra diam vitae quam. Suspendisse potenti."},
{"id":69,"company_name":"Durgan and Sons","title":"A conversation about Durgan and Sons","date":"2021-06-15T15:09:27Z","location":{"address":"48482 Chinook Pass","city":"Châtellerault","state":"Poitou-Charentes","country":"France","zipcode":"86104 CEDEX","phone":"583-668-0239"},"type":"event","content_1":"Join us for an in depth discussion about Durgan and Sons at 48482 Chinook Pass!","content_2":"Nullam porttitor lacus at turpis. Donec posuere metus vitae ipsum. Aliquam non mauris."},
{"id":70,"company_name":"Morissette Group","title":"A conversation about Morissette Group","date":"2021-03-27T22:07:19Z","location":{"address":"06362 Mcguire Lane","city":"Agen","state":"Aquitaine","country":"France","zipcode":"47912 CEDEX 9","phone":"137-161-0943"},"type":"event","content_1":"Join us for an in depth discussion about Morissette Group at 06362 Mcguire Lane!","content_2":"Quisque id justo sit amet sapien dignissim vestibulum. Vestibulum ante ipsum primis in faucibus orci luctus et ultrices posuere cubilia Curae; Nulla dapibus dolor vel est. Donec odio justo, sollicitudin ut, suscipit a, feugiat et, eros."},
{"id":71,"company_name":"Davis and Sons","title":"A conversation about Davis and Sons","date":"2022-02-02T22:53:01Z","location":{"address":"6105 Hooker Junction","city":"Youngstown","state":"Ohio","country":"United States","zipcode":"44505","phone":"330-136-8525"},"type":"event","content_1":"Join us for an in depth discussion about Davis and Sons at 6105 Hooker Junction!","content_2":"Vestibulum ac est lacinia nisi venenatis tristique. Fusce congue, diam id ornare imperdiet, sapien urna pretium nisl, ut volutpat sapien arcu sed augue. Aliquam erat volutpat.\n\nIn congue. Etiam justo. Etiam pretium iaculis justo."},
{"id":72,"company_name":"Leuschke, McCullough and Kassulke","title":"A conversation about Leuschke, McCullough and Kassulke","date":"2021-01-13T07:25:05Z","location":{"address":"765 Mendota Crossing","city":"Newport Beach","state":"California","country":"United States","zipcode":"92662","phone":"949-401-2320"},"type":"event","content_1":"Join us for an in depth discussion about Leuschke, McCullough and Kassulke at 765 Mendota Crossing!","content_2":"Maecenas ut massa quis augue luctus tincidunt. Nulla mollis molestie lorem. Quisque ut erat."},
{"id":73,"company_name":"Bartell LLC","title":"A conversation about Bartell LLC","date":"2020-12-22T08:44:25Z","location":{"address":"9 Green Ridge Junction","city":"Roubaix","state":"Nord-Pas-de-Calais","country":"France","zipcode":"59100","phone":"616-901-2196"},"type":"event","content_1":"Join us for an in depth discussion about Bartell LLC at 9 Green Ridge Junction!","content_2":"Sed ante. Vivamus tortor. Duis mattis egestas metus."},
{"id":74,"company_name":"Wehner Group","title":"A conversation about Wehner Group","date":"2021-12-09T03:08:52Z","location":{"address":"7 Rutledge Way","city":"Philadelphia","state":"Pennsylvania","country":"United States","zipcode":"19104","phone":"215-600-2876"},"type":"event","content_1":"Join us for an in depth discussion about Wehner Group at 7 Rutledge Way!","content_2":"Cras non velit nec nisi vulputate nonummy. Maecenas tincidunt lacus at velit. Vivamus vel nulla eget eros elementum pellentesque.\n\nQuisque porta volutpat erat. Quisque erat eros, viverra eget, congue eget, semper rutrum, nulla. Nunc purus."},
{"id":75,"company_name":"Hodkiewicz-Walsh","title":"A conversation about Hodkiewicz-Walsh","date":"2021-07-10T12:25:28Z","location":{"address":"49 Homewood Point","city":"Burgeo","state":"Newfoundland and Labrador","country":"Canada","zipcode":"N9A","phone":"332-329-7148"},"type":"event","content_1":"Join us for an in depth discussion about Hodkiewicz-Walsh at 49 Homewood Point!","content_2":"In sagittis dui vel nisl. Duis ac nibh. Fusce lacus purus, aliquet at, feugiat non, pretium quis, lectus."},
{"id":76,"company_name":"Schaden-Lakin","title":"A conversation about Schaden-Lakin","date":"2021-09-03T07:46:35Z","location":{"address":"79 Utah Park","city":"Richmond","state":"Virginia","country":"United States","zipcode":"23272","phone":"571-168-3956"},"type":"event","content_1":"Join us for an in depth discussion about Schaden-Lakin at 79 Utah Park!","content_2":"Cras non velit nec nisi vulputate nonummy. Maecenas tincidunt lacus at velit. Vivamus vel nulla eget eros elementum pellentesque."},
{"id":77,"company_name":"Stracke-Stroman","title":"A conversation about Stracke-Stroman","date":"2021-07-27T14:30:18Z","location":{"address":"884 Saint Paul Avenue","city":"Humble","state":"Texas","country":"United States","zipcode":"77346","phone":"713-371-2159"},"type":"event","content_1":"Join us for an in depth discussion about Stracke-Stroman at 884 Saint Paul Avenue!","content_2":"Quisque id justo sit amet sapien dignissim vestibulum. Vestibulum ante ipsum primis in faucibus orci luctus et ultrices posuere cubilia Curae; Nulla dapibus dolor vel est. Donec odio justo, sollicitudin ut, suscipit a, feugiat et, eros.\n\nVestibulum ac est lacinia nisi venenatis tristique. Fusce congue, diam id ornare imperdiet, sapien urna pretium nisl, ut volutpat sapien arcu sed augue. Aliquam erat volutpat."},
{"id":78,"company_name":"Armstrong Group","title":"A conversation about Armstrong Group","date":"2021-04-23T06:21:15Z","location":{"address":"91 Russell Pass","city":"Muskegon","state":"Michigan","country":"United States","zipcode":"49444","phone":"231-890-3098"},"type":"event","content_1":"Join us for an in depth discussion about Armstrong Group at 91 Russell Pass!","content_2":"Duis bibendum, felis sed interdum venenatis, turpis enim blandit mi, in porttitor pede justo eu massa. Donec dapibus. Duis at velit eu est congue elementum.\n\nIn hac habitasse platea dictumst. Morbi vestibulum, velit id pretium iaculis, diam erat fermentum justo, nec condimentum neque sapien placerat ante. Nulla justo."},
{"id":79,"company_name":"Sauer-Lindgren","title":"A conversation about Sauer-Lindgren","date":"2021-04-14T02:11:54Z","location":{"address":"20 Oneill Street","city":"Nanterre","state":"Île-de-France","country":"France","zipcode":"92004 CEDEX","phone":"773-898-7409"},"type":"event","content_1":"Join us for an in depth discussion about Sauer-Lindgren at 20 Oneill Street!","content_2":"Donec diam neque, vestibulum eget, vulputate ut, ultrices vel, augue. Vestibulum ante ipsum primis in faucibus orci luctus et ultrices posuere cubilia Curae; Donec pharetra, magna vestibulum aliquet ultrices, erat tortor sollicitudin mi, sit amet lobortis sapien sapien non mi. Integer ac neque.\n\nDuis bibendum. Morbi non quam nec dui luctus rutrum. Nulla tellus."},
{"id":80,"company_name":"Hintz and Sons","title":"A conversation about Hintz and Sons","date":"2021-08-17T09:18:07Z","location":{"address":"49477 Elka Plaza","city":"Rochester","state":"New York","country":"United States","zipcode":"14604","phone":"585-886-9766"},"type":"event","content_1":"Join us for an in depth discussion about Hintz and Sons at 49477 Elka Plaza!","content_2":"Integer ac leo. Pellentesque ultrices mattis odio. Donec vitae nisi."},
{"id":81,"company_name":"Bosco, Harber and Pouros","title":"A conversation about Bosco, Harber and Pouros","date":"2021-03-01T23:44:09Z","location":{"address":"31129 Anhalt Hill","city":"Paris 17","state":"Île-de-France","country":"France","zipcode":"75837 CEDEX 17","phone":"903-656-2178"},"type":"event","content_1":"Join us for an in depth discussion about Bosco, Harber and Pouros at 31129 Anhalt Hill!","content_2":"Praesent blandit. Nam nulla. Integer pede justo, lacinia eget, tincidunt eget, tempus vel, pede."},
{"id":82,"company_name":"Metz Inc","title":"A conversation about Metz Inc","date":"2021-01-25T07:16:07Z","location":{"address":"0898 Hintze Park","city":"Sainte-Sophie","state":"Québec","country":"Canada","zipcode":"J5J","phone":"743-989-8277"},"type":"event","content_1":"Join us for an in depth discussion about Metz Inc at 0898 Hintze Park!","content_2":"Phasellus sit amet erat. Nulla tempus. Vivamus in felis eu sapien cursus vestibulum."},
{"id":83,"company_name":"Goodwin Group","title":"A conversation about Goodwin Group","date":"2020-12-30T06:35:55Z","location":{"address":"477 Monterey Drive","city":"Houston","state":"Texas","country":"United States","zipcode":"77075","phone":"832-521-4788"},"type":"event","content_1":"Join us for an in depth discussion about Goodwin Group at 477 Monterey Drive!","content_2":"Nulla ut erat id mauris vulputate elementum. Nullam varius. Nulla facilisi."},
{"id":84,"company_name":"Hodkiewicz LLC","title":"A conversation about Hodkiewicz LLC","date":"2021-01-01T18:49:48Z","location":{"address":"851 Veith Court","city":"Hollywood","state":"Florida","country":"United States","zipcode":"33023","phone":"954-592-0399"},"type":"event","content_1":"Join us for an in depth discussion about Hodkiewicz LLC at 851 Veith Court!","content_2":"Duis bibendum. Morbi non quam nec dui luctus rutrum. Nulla tellus.\n\nIn sagittis dui vel nisl. Duis ac nibh. Fusce lacus purus, aliquet at, feugiat non, pretium quis, lectus."},
{"id":85,"company_name":"Koss, Bins and VonRueden","title":"A conversation about Koss, Bins and VonRueden","date":"2021-02-26T08:15:01Z","location":{"address":"345 Sutteridge Street","city":"Langley","state":"England","country":"United Kingdom","zipcode":"SG4","phone":"887-152-5456"},"type":"event","content_1":"Join us for an in depth discussion about Koss, Bins and VonRueden at 345 Sutteridge Street!","content_2":"Maecenas leo odio, condimentum id, luctus nec, molestie sed, justo. Pellentesque viverra pede ac diam. Cras pellentesque volutpat dui."},
{"id":86,"company_name":"Swaniawski-Padberg","title":"A conversation about Swaniawski-Padberg","date":"2020-12-07T04:34:47Z","location":{"address":"44512 Doe Crossing Crossing","city":"Phoenix","state":"Arizona","country":"United States","zipcode":"85099","phone":"602-517-7843"},"type":"event","content_1":"Join us for an in depth discussion about Swaniawski-Padberg at 44512 Doe Crossing Crossing!","content_2":"Praesent blandit. Nam nulla. Integer pede justo, lacinia eget, tincidunt eget, tempus vel, pede.\n\nMorbi porttitor lorem id ligula. Suspendisse ornare consequat lectus. In est risus, auctor sed, tristique in, tempus sit amet, sem."},
{"id":87,"company_name":"Huels Inc","title":"A conversation about Huels Inc","date":"2022-01-18T22:57:07Z","location":{"address":"83 Westerfield Way","city":"Springfield","state":"Virginia","country":"United States","zipcode":"22156","phone":"571-138-3082"},"type":"event","content_1":"Join us for an in depth discussion about Huels Inc at 83 Westerfield Way!","content_2":"Lorem ipsum dolor sit amet, consectetuer adipiscing elit. Proin risus. Praesent lectus.\n\nVestibulum quam sapien, varius ut, blandit non, interdum in, ante. Vestibulum ante ipsum primis in faucibus orci luctus et ultrices posuere cubilia Curae; Duis faucibus accumsan odio. Curabitur convallis."},
{"id":88,"company_name":"Rogahn LLC","title":"A conversation about Rogahn LLC","date":"2021-10-13T16:10:11Z","location":{"address":"44380 Hermina Alley","city":"Gaillac","state":"Midi-Pyrénées","country":"France","zipcode":"81604 CEDEX","phone":"251-562-8556"},"type":"event","content_1":"Join us for an in depth discussion about Rogahn LLC at 44380 Hermina Alley!","content_2":"Nullam sit amet turpis elementum ligula vehicula consequat. Morbi a ipsum. Integer a nibh."},
{"id":89,"company_name":"Quitzon-Vandervort","title":"A conversation about Quitzon-Vandervort","date":"2021-07-15T03:19:17Z","location":{"address":"2 Sachs Plaza","city":"Laval","state":"Pays de la Loire","country":"France","zipcode":"53085 CEDEX 9","phone":"432-525-0594"},"type":"event","content_1":"Join us for an in depth discussion about Quitzon-Vandervort at 2 Sachs Plaza!","content_2":"Aliquam quis turpis eget elit sodales scelerisque. Mauris sit amet eros. Suspendisse accumsan tortor quis turpis."},
{"id":90,"company_name":"Jast, Grimes and Marquardt","title":"A conversation about Jast, Grimes and Marquardt","date":"2020-11-10T16:04:33Z","location":{"address":"6929 Spaight Center","city":"Grand Junction","state":"Colorado","country":"United States","zipcode":"81505","phone":"970-824-2730"},"type":"event","content_1":"Join us for an in depth discussion about Jast, Grimes and Marquardt at 6929 Spaight Center!","content_2":"Proin eu mi. Nulla ac enim. In tempor, turpis nec euismod scelerisque, quam turpis adipiscing lorem, vitae mattis nibh ligula nec sem.\n\nDuis aliquam convallis nunc. Proin at turpis a pede posuere nonummy. Integer non velit."},
{"id":91,"company_name":"Fritsch Group","title":"A conversation about Fritsch Group","date":"2022-02-02T08:04:04Z","location":{"address":"5118 Raven Crossing","city":"Remiremont","state":"Lorraine","country":"France","zipcode":"88204 CEDEX","phone":"914-389-7013"},"type":"event","content_1":"Join us for an in depth discussion about Fritsch Group at 5118 Raven Crossing!","content_2":"Praesent blandit. Nam nulla. Integer pede justo, lacinia eget, tincidunt eget, tempus vel, pede.\n\nMorbi porttitor lorem id ligula. Suspendisse ornare consequat lectus. In est risus, auctor sed, tristique in, tempus sit amet, sem."},
{"id":92,"company_name":"Terry Group","title":"A conversation about Terry Group","date":"2021-07-01T18:27:59Z","location":{"address":"51 Amoth Parkway","city":"Charlotte","state":"North Carolina","country":"United States","zipcode":"28263","phone":"704-350-8098"},"type":"event","content_1":"Join us for an in depth discussion about Terry Group at 51 Amoth Parkway!","content_2":"Morbi non lectus. Aliquam sit amet diam in magna bibendum imperdiet. Nullam orci pede, venenatis non, sodales sed, tincidunt eu, felis."},
{"id":93,"company_name":"Orn-Leffler","title":"A conversation about Orn-Leffler","date":"2021-11-24T16:03:56Z","location":{"address":"227 Darwin Court","city":"Pilot Butte","state":"Saskatchewan","country":"Canada","zipcode":"N8M","phone":"731-615-0660"},"type":"event","content_1":"Join us for an in depth discussion about Orn-Leffler at 227 Darwin Court!","content_2":"Duis bibendum. Morbi non quam nec dui luctus rutrum. Nulla tellus.\n\nIn sagittis dui vel nisl. Duis ac nibh. Fusce lacus purus, aliquet at, feugiat non, pretium quis, lectus."},
{"id":94,"company_name":"Larkin, Kuhlman and Corkery","title":"A conversation about Larkin, Kuhlman and Corkery","date":"2021-06-18T14:54:28Z","location":{"address":"2099 Graedel Terrace","city":"New Glasgow","state":"Nova Scotia","country":"Canada","zipcode":"B2H","phone":"398-669-9800"},"type":"event","content_1":"Join us for an in depth discussion about Larkin, Kuhlman and Corkery at 2099 Graedel Terrace!","content_2":"Nulla ut erat id mauris vulputate elementum. Nullam varius. Nulla facilisi."},
{"id":95,"company_name":"Wintheiser, Rohan and Price","title":"A conversation about Wintheiser, Rohan and Price","date":"2021-11-22T22:44:10Z","location":{"address":"0 Walton Terrace","city":"Wilkes Barre","state":"Pennsylvania","country":"United States","zipcode":"18763","phone":"570-718-3234"},"type":"event","content_1":"Join us for an in depth discussion about Wintheiser, Rohan and Price at 0 Walton Terrace!","content_2":"In sagittis dui vel nisl. Duis ac nibh. Fusce lacus purus, aliquet at, feugiat non, pretium quis, lectus."},
{"id":96,"company_name":"Ernser, Smith and Feest","title":"A conversation about Ernser, Smith and Feest","date":"2021-05-17T19:28:08Z","location":{"address":"64 Leroy Junction","city":"Aurora","state":"Colorado","country":"United States","zipcode":"80044","phone":"303-289-4697"},"type":"event","content_1":"Join us for an in depth discussion about Ernser, Smith and Feest at 64 Leroy Junction!","content_2":"Vestibulum ac est lacinia nisi venenatis tristique. Fusce congue, diam id ornare imperdiet, sapien urna pretium nisl, ut volutpat sapien arcu sed augue. Aliquam erat volutpat.\n\nIn congue. Etiam justo. Etiam pretium iaculis justo."},
{"id":97,"company_name":"Raynor Inc","title":"A conversation about Raynor Inc","date":"2021-11-13T22:11:07Z","location":{"address":"6897 Kensington Parkway","city":"Mont-Saint-Aignan","state":"Haute-Normandie","country":"France","zipcode":"76821 CEDEX","phone":"389-879-8020"},"type":"event","content_1":"Join us for an in depth discussion about Raynor Inc at 6897 Kensington Parkway!","content_2":"Fusce posuere felis sed lacus. Morbi sem mauris, laoreet ut, rhoncus aliquet, pulvinar sed, nisl. Nunc rhoncus dui vel sem.\n\nSed sagittis. Nam congue, risus semper porta volutpat, quam pede lobortis ligula, sit amet eleifend pede libero quis orci. Nullam molestie nibh in lectus."},
{"id":98,"company_name":"Hodkiewicz and Sons","title":"A conversation about Hodkiewicz and Sons","date":"2021-11-05T07:34:24Z","location":{"address":"20448 Reindahl Pass","city":"Brive-la-Gaillarde","state":"Limousin","country":"France","zipcode":"19318 CEDEX","phone":"487-986-3710"},"type":"event","content_1":"Join us for an in depth discussion about Hodkiewicz and Sons at 20448 Reindahl Pass!","content_2":"Quisque porta volutpat erat. Quisque erat eros, viverra eget, congue eget, semper rutrum, nulla. Nunc purus."},
{"id":99,"company_name":"Conroy LLC","title":"A conversation about Conroy LLC","date":"2021-05-16T04:59:52Z","location":{"address":"1445 Montana Street","city":"Tulsa","state":"Oklahoma","country":"United States","zipcode":"74193","phone":"918-399-3675"},"type":"event","content_1":"Join us for an in depth discussion about Conroy LLC at 1445 Montana Street!","content_2":"Lorem ipsum dolor sit amet, consectetuer adipiscing elit. Proin risus. Praesent lectus."},
{"id":100,"company_name":"Effertz Inc","title":"A conversation about Effertz Inc","date":"2022-01-20T07:21:12Z","location":{"address":"991 Petterle Drive","city":"Paris 08","state":"Île-de-France","country":"France","zipcode":"75419 CEDEX 08","phone":"486-965-8129"},"type":"event","content_1":"Join us for an in depth discussion about Effertz Inc at 991 Petterle Drive!","content_2":"Nullam porttitor lacus at turpis. Donec posuere metus vitae ipsum. Aliquam non mauris.\n\nMorbi non lectus. Aliquam sit amet diam in magna bibendum imperdiet. Nullam orci pede, venenatis non, sodales sed, tincidunt eu, felis."},
{"id":101,"company_name":"Metz Group","title":"A conversation about Metz Group","date":"2021-06-08T00:37:35Z","location":{"address":"40 Luster Hill","city":"Evansville","state":"Indiana","country":"United States","zipcode":"47719","phone":"812-853-1631"},"type":"event","content_1":"Join us for an in depth discussion about Metz Group at 40 Luster Hill!","content_2":"Etiam vel augue. Vestibulum rutrum rutrum neque. Aenean auctor gravida sem.\n\nPraesent id massa id nisl venenatis lacinia. Aenean sit amet justo. Morbi ut odio."},
{"id":102,"company_name":"Funk-Rogahn","title":"A conversation about Funk-Rogahn","date":"2021-08-06T10:12:14Z","location":{"address":"012 Pennsylvania Plaza","city":"Toulouse","state":"Midi-Pyrénées","country":"France","zipcode":"31101 CEDEX 9","phone":"742-351-9610"},"type":"event","content_1":"Join us for an in depth discussion about Funk-Rogahn at 012 Pennsylvania Plaza!","content_2":"Maecenas tristique, est et tempus semper, est quam pharetra magna, ac consequat metus sapien ut nunc. Vestibulum ante ipsum primis in faucibus orci luctus et ultrices posuere cubilia Curae; Mauris viverra diam vitae quam. Suspendisse potenti.\n\nNullam porttitor lacus at turpis. Donec posuere metus vitae ipsum. Aliquam non mauris."},
{"id":103,"company_name":"Kertzmann-Huel","title":"A conversation about Kertzmann-Huel","date":"2021-05-30T08:27:06Z","location":{"address":"6 Michigan Court","city":"Beauvais","state":"Picardie","country":"France","zipcode":"60006 CEDEX","phone":"705-327-8814"},"type":"event","content_1":"Join us for an in depth discussion about Kertzmann-Huel at 6 Michigan Court!","content_2":"Duis consequat dui nec nisi volutpat eleifend. Donec ut dolor. Morbi vel lectus in quam fringilla rhoncus."},
{"id":104,"company_name":"Schumm-Beer","title":"A conversation about Schumm-Beer","date":"2020-10-24T01:27:36Z","location":{"address":"72 Carey Drive","city":"Hatton","state":"England","country":"United Kingdom","zipcode":"CV35","phone":"376-111-8203"},"type":"event","content_1":"Join us for an in depth discussion about Schumm-Beer at 72 Carey Drive!","content_2":"Vestibulum quam sapien, varius ut, blandit non, interdum in, ante. Vestibulum ante ipsum primis in faucibus orci luctus et ultrices posuere cubilia Curae; Duis faucibus accumsan odio. Curabitur convallis."},
{"id":105,"company_name":"Daniel, Mitchell and Yundt","title":"A conversation about Daniel, Mitchell and Yundt","date":"2021-12-13T20:20:48Z","location":{"address":"4 Marquette Court","city":"Asheville","state":"North Carolina","country":"United States","zipcode":"28815","phone":"828-640-6627"},"type":"event","content_1":"Join us for an in depth discussion about Daniel, Mitchell and Yundt at 4 Marquette Court!","content_2":"Proin leo odio, porttitor id, consequat in, consequat ut, nulla. Sed accumsan felis. Ut at dolor quis odio consequat varius."},
{"id":106,"company_name":"Bins Group","title":"A conversation about Bins Group","date":"2021-08-15T14:37:42Z","location":{"address":"86 Fairfield Road","city":"Port Washington","state":"New York","country":"United States","zipcode":"11054","phone":"516-139-2314"},"type":"event","content_1":"Join us for an in depth discussion about Bins Group at 86 Fairfield Road!","content_2":"Fusce posuere felis sed lacus. Morbi sem mauris, laoreet ut, rhoncus aliquet, pulvinar sed, nisl. Nunc rhoncus dui vel sem."},
{"id":107,"company_name":"Howell, Streich and Lynch","title":"A conversation about Howell, Streich and Lynch","date":"2021-11-07T10:58:01Z","location":{"address":"98 Butternut Trail","city":"Angers","state":"Pays de la Loire","country":"France","zipcode":"49066 CEDEX 01","phone":"303-821-5972"},"type":"event","content_1":"Join us for an in depth discussion about Howell, Streich and Lynch at 98 Butternut Trail!","content_2":"Phasellus sit amet erat. Nulla tempus. Vivamus in felis eu sapien cursus vestibulum."},
{"id":108,"company_name":"Fay-Feil","title":"A conversation about Fay-Feil","date":"2021-07-07T05:42:58Z","location":{"address":"15610 Fieldstone Place","city":"Virginia Beach","state":"Virginia","country":"United States","zipcode":"23459","phone":"757-280-6730"},"type":"event","content_1":"Join us for an in depth discussion about Fay-Feil at 15610 Fieldstone Place!","content_2":"Quisque porta volutpat erat. Quisque erat eros, viverra eget, congue eget, semper rutrum, nulla. Nunc purus."},
{"id":109,"company_name":"Botsford Inc","title":"A conversation about Botsford Inc","date":"2021-02-01T05:54:15Z","location":{"address":"58039 Memorial Parkway","city":"Dallas","state":"Texas","country":"United States","zipcode":"75372","phone":"214-740-6456"},"type":"event","content_1":"Join us for an in depth discussion about Botsford Inc at 58039 Memorial Parkway!","content_2":"Nam ultrices, libero non mattis pulvinar, nulla pede ullamcorper augue, a suscipit nulla elit ac nulla. Sed vel enim sit amet nunc viverra dapibus. Nulla suscipit ligula in lacus."},
{"id":110,"company_name":"Kling, Bode and DuBuque","title":"A conversation about Kling, Bode and DuBuque","date":"2020-10-30T00:33:07Z","location":{"address":"9129 Forest Center","city":"New Bedford","state":"Massachusetts","country":"United States","zipcode":"02745","phone":"508-931-6413"},"type":"event","content_1":"Join us for an in depth discussion about Kling, Bode and DuBuque at 9129 Forest Center!","content_2":"Sed sagittis. Nam congue, risus semper porta volutpat, quam pede lobortis ligula, sit amet eleifend pede libero quis orci. Nullam molestie nibh in lectus.\n\nPellentesque at nulla. Suspendisse potenti. Cras in purus eu magna vulputate luctus."}]